,City,Country,Longitude,Latitude,Humidity (%),Wind Speed (mph),Cloudiness (%),Max Temp (f)
0,Severo-Kuril'sk,RU,156.12,50.68,74,4.45,100,24.98
1,Carora,VE,-70.08,10.18,51,9.01,29,80.71
2,Hilo,US,-155.09,19.73,92,4.61,100,65.93
3,Port Alfred,ZA,26.89,-33.59,74,20.09,100,69.94
4,Qarchak,IR,51.57,35.44,42,7.16,5,52.47
5,Rikitea,PF,-134.97,-23.12,69,9.35,61,77.81
6,Tuktoyaktuk,CA,-133.04,69.45,97,9.6,100,-25.98
7,Kavaratti,IN,72.64,10.57,68,4.81,1,81.79
8,Bluff,NZ,168.33,-46.6,88,7.72,100,50.81
9,Saskylakh,RU,114.08,71.92,97,5.03,35,-15.68
10,Hobart,AU,147.33,-42.88,91,5.75,100,61.11
11,Kapaa,US,-159.32,22.08,88,6.91,75,64.72
12,Jamestown,US,-79.24,42.1,63,6.91,100,13.32
13,Pevek,RU,170.31,69.7,99,6.53,100,-22.65
14,Salalah,OM,54.09,17.02,12,9.22,0,80.69
15,Mar del Plata,AR,-57.56,-38.0,79,9.22,0,75.22
16,Cap Malheureux,MU,57.61,-19.98,78,10.0,98,82.89
17,Punta Arenas,CL,-70.92,-53.15,57,11.5,100,48.31
18,Saint-Joseph,RE,55.62,-21.37,82,10.69,100,82.78
19,Jalu,LY,21.55,29.03,31,7.09,0,64.44
20,Yoichi,JP,140.77,43.2,75,6.08,91,25.61
21,Port Macquarie,AU,152.92,-31.43,82,6.4,100,66.88
22,George Town,MY,100.34,5.41,86,8.05,40,82.33
23,Lagoa,PT,-27.98,39.05,68,6.17,57,58.42
24,Bambous Virieux,MU,57.76,-20.34,83,11.5,75,82.65
25,Hermanus,ZA,19.23,-34.42,57,24.56,0,82.8
26,Faanui,PF,-151.75,-16.48,76,16.62,100,80.55
27,Ushuaia,AR,-68.3,-54.8,46,9.22,75,49.66
28,Mataura,NZ,168.86,-46.19,97,0.94,100,50.49
29,Kuusankoski,FI,26.62,60.91,99,9.22,100,32.52
30,Thinadhoo,MV,72.93,0.53,74,10.67,100,82.49
31,Constitución,CL,-72.42,-35.33,62,5.17,0,68.99
32,Calvillo,MX,-102.72,21.85,43,4.88,100,54.7
33,Itagi,BR,-40.01,-14.16,58,2.01,76,88.16
34,Hualmay,PE,-77.61,-11.1,72,9.22,91,74.43
35,New Norfolk,AU,147.06,-42.78,74,1.1,44,60.75
36,Mahanoro,MG,48.8,-19.9,81,4.9,6,79.05
37,Naze,JP,129.48,28.37,64,15.66,1,56.55
38,Charters Towers,AU,146.27,-20.1,73,11.07,0,73.33
39,Chokurdakh,RU,147.92,70.63,93,8.48,23,-16.78
40,Yellowknife,CA,-114.35,62.46,85,4.0,100,-16.58
41,Qaanaaq,GL,-69.36,77.48,72,6.46,100,1.0
42,Gouré,NE,10.27,13.98,6,10.58,66,88.02
43,Castro,BR,-50.01,-24.79,65,4.23,0,77.63
44,Sioux Lookout,CA,-91.92,50.1,98,3.58,93,-12.12
45,Tchaourou,BJ,2.6,8.89,10,4.12,74,100.33
46,Eidsvåg,NO,8.07,62.78,90,5.64,92,35.65
47,Mossamedes,AO,12.15,-15.2,69,14.63,8,80.92
48,Port Elizabeth,ZA,25.57,-33.92,69,19.77,100,70.59
49,Luleå,SE,22.15,65.58,92,5.75,0,14.07
50,Bredasdorp,ZA,20.04,-34.53,68,24.43,26,82.27
51,Dingle,PH,122.67,11.0,82,5.99,9,74.73
52,Dikson,RU,80.55,73.51,94,19.55,100,-3.98
53,Aykhal,RU,111.5,66.0,52,4.34,65,-6.97
54,Rawson,AR,-65.1,-43.3,54,13.06,38,64.58
55,Butaritari,KI,172.79,3.07,76,13.85,70,81.61
56,Luján,AR,-59.1,-34.57,39,4.0,0,83.01
57,Glotovka,RU,46.7,53.95,90,10.69,100,23.07
58,Marystown,CA,-55.15,47.17,100,10.0,100,28.85
59,Kamaishi,JP,141.88,39.27,77,8.05,99,33.6
60,Broken Hill,AU,141.43,-31.95,26,13.29,16,84.13
61,Ribeira Grande,PT,-28.7,38.52,67,4.61,75,63.0
62,Saint Paul Harbor,US,-152.41,57.79,86,0.0,100,33.31
63,Anadyr,RU,177.48,64.75,66,6.26,90,-35.52
64,Porto-Novo,BJ,2.6,6.5,56,12.62,96,88.57
65,Hong Kong,HK,114.16,22.29,86,8.01,23,64.26
66,Narasannapeta,IN,84.05,18.42,59,6.2,7,69.49
67,Kapit,MY,112.93,2.02,99,1.05,62,74.28
68,Klaksvík,FO,-6.59,62.23,58,16.91,100,34.72
69,East London,ZA,27.91,-33.02,78,12.44,100,69.22
70,Hithadhoo,MV,73.08,-0.6,71,12.75,84,82.56
71,La Roche-sur-Yon,FR,-1.43,46.67,76,14.97,75,53.04
72,Albany,US,-73.97,42.6,52,5.99,30,13.17
73,Matara,LK,80.54,5.95,87,9.89,100,76.55
74,Clarksburg,US,-80.34,39.28,68,6.91,75,21.31
75,Vrangel',RU,133.08,42.73,85,10.65,100,24.15
76,Chimbote,PE,-78.58,-9.09,70,7.92,100,74.68
77,Nome,US,-165.41,64.5,70,0.0,0,-14.73
78,Atuona,PF,-139.03,-9.8,69,17.92,53,77.9
79,Lebu,CL,-73.65,-37.62,70,5.64,29,63.86
80,Carballo,ES,-8.69,43.21,79,7.99,10,54.86
81,Vaini,TO,-175.2,-21.2,94,9.22,75,75.36
82,Mehamn,NO,27.85,71.04,75,39.08,100,32.18
83,Avarua,CK,-159.78,-21.21,94,2.3,75,73.45
84,Codrington,AU,141.97,-38.27,84,9.46,8,57.83
85,Koumac,NC,164.28,-20.57,83,3.33,100,79.41
86,Lidköping,SE,13.16,58.51,3,12.73,100,42.82
87,Chui,UY,-53.46,-33.7,41,14.0,0,77.9
88,Saint-Philippe,RE,55.77,-21.36,86,12.3,100,83.79
89,Bangkal,PH,121.07,6.07,85,3.6,85,77.13
90,Busselton,AU,115.33,-33.65,58,16.04,0,74.05
91,Cape Town,ZA,18.42,-33.93,38,10.47,1,91.11
92,Ixtapa,MX,-105.2,20.7,83,3.44,100,67.23
93,Togur,RU,82.83,58.36,95,6.71,100,11.32
94,São Filipe,CV,-24.5,14.9,61,11.45,100,74.48
95,Bethanien,NA,17.16,-26.5,38,14.94,30,82.96
96,Lompoc,US,-120.46,34.64,100,3.44,100,63.79
97,Ayan,RU,138.17,56.45,82,7.27,1,-9.49
98,Altay,CN,88.12,47.87,74,6.24,100,12.87
99,Sørland,NO,12.69,67.67,80,14.97,40,31.86
100,Xam Nua,LA,104.04,20.42,98,2.64,42,54.63
101,Puerto Ayora,EC,-90.35,-0.74,90,5.44,84,82.36
102,Teguise,ES,-13.56,29.06,60,13.8,75,64.62
103,Monte Patria,CL,-70.95,-30.69,46,6.58,0,78.12
104,Port-Gentil,GA,8.78,-0.72,73,11.03,91,81.3
105,Novovasylivka,UA,35.75,46.83,58,8.7,0,37.92
106,Gobabis,NA,18.97,-22.45,44,6.24,76,79.63
107,Cockburn Town,TC,-71.14,21.46,79,13.94,0,78.17
108,Wasilla,US,-149.44,61.58,90,5.75,20,26.28
109,Cayenne,GF,-52.33,4.93,90,3.44,100,78.1
110,Ilulissat,GL,-51.1,69.22,66,4.61,75,1.42
111,Lucea,JM,-78.17,18.45,63,10.78,2,79.86
112,Ponta do Sol,PT,-17.1,32.67,69,3.47,55,67.12
113,Souillac,MU,57.52,-20.52,83,11.5,75,82.78
114,Port Hardy,CA,-127.42,50.7,100,4.61,75,42.76
115,Sura,RU,45.74,53.89,90,12.71,100,25.14
116,Sinnamary,GF,-52.95,5.38,85,11.14,9,79.54
117,Dicabisagan,PH,122.42,17.08,94,5.41,99,74.75
118,Trincomalee,LK,81.23,8.57,65,14.38,99,79.68
119,Morehead,US,-87.18,37.27,76,1.01,100,27.14
120,Omsukchan,RU,155.8,62.53,99,4.63,80,-31.85
121,Sept-Îles,CA,-66.38,50.2,59,5.99,100,2.05
122,Deputatsky,RU,139.9,69.3,97,6.08,14,-24.02
123,Iwaki,JP,140.88,37.05,90,5.12,27,30.02
124,Iberia,US,-91.75,29.95,71,0.0,0,53.98
125,Narsaq,GL,-46.05,60.92,71,11.65,99,17.82
126,Coyhaique,CL,-72.07,-45.58,21,8.05,40,68.61
127,Qandala,SO,49.87,11.47,72,10.04,7,75.69
128,Shitanjing,CN,106.34,39.23,53,8.01,36,19.09
129,Najrān,SA,44.13,17.49,24,11.03,16,69.75
130,Kloulklubed,PW,134.26,7.04,74,14.79,99,79.3
131,Ucluelet,CA,-125.55,48.93,91,4.38,100,43.09
132,Ulaangom,MN,92.07,49.98,96,3.29,82,-25.83
133,Upernavik,GL,-56.15,72.79,97,4.12,100,-10.66
134,Ancud,CL,-73.82,-41.87,65,2.64,55,70.23
135,Cherskiy,RU,161.3,68.75,100,5.46,41,-33.97
136,Rocha,UY,-54.33,-34.48,42,15.05,0,77.54
137,Bengkulu,ID,102.27,-3.8,82,3.0,75,77.94
138,Fuzhou,CN,119.31,26.06,80,4.97,94,51.53
139,Kupang,ID,123.58,-10.17,85,8.84,56,78.58
140,Tezu,IN,96.17,27.92,41,5.3,0,57.9
141,Maniitsoq,GL,-52.9,65.42,86,4.7,100,-1.32
142,Esperance,AU,121.9,-33.87,72,16.06,71,66.13
143,Kahului,US,-156.47,20.89,78,4.0,20,69.84
144,Ambilobe,MG,49.05,-13.2,87,2.75,88,77.67
145,Burē,ET,37.07,10.7,27,9.06,76,76.82
146,Nikolskoye,RU,30.79,59.7,88,9.19,100,35.87
147,Talā,EG,30.94,30.68,56,13.69,15,62.37
148,Lubango,AO,13.49,-14.92,33,9.98,59,76.69
149,Hofn,IS,-15.21,64.25,66,18.19,100,35.98
150,Clyde River,CA,-68.59,70.47,84,25.32,100,-12.77
151,Tual,ID,132.75,-5.67,73,9.62,97,82.74
152,Sur,OM,59.53,22.57,71,14.74,57,70.3
153,Pisco,PE,-76.22,-13.7,68,6.91,0,75.02
154,Carlsbad,US,-117.35,33.16,30,3.44,0,65.16
155,Mackay,AU,149.2,-21.15,82,20.47,60,74.68
156,Chabahar,IR,60.64,25.29,65,5.91,33,71.91
157,Kudahuvadhoo,MV,72.89,2.67,73,6.73,100,82.15
158,Hangu,CN,117.79,39.25,40,6.02,0,19.44
159,Bugiri,UG,33.74,0.57,45,5.28,97,80.98
160,Pacific Grove,US,-121.92,36.62,91,5.01,100,52.57
161,Camambugan,PH,124.44,10.06,84,5.26,36,77.74
162,Kashgar,CN,75.98,39.45,44,0.45,85,34.56
163,Isangel,VU,169.27,-19.55,87,10.33,17,78.06
164,Carnarvon,AU,113.63,-24.87,74,6.91,7,80.67
165,Liwale,TZ,37.93,-9.77,87,3.96,100,71.96
166,Hasaki,JP,140.83,35.73,55,10.8,68,32.4
167,Campbell River,CA,-125.24,50.02,97,5.82,100,42.46
168,Timaru,NZ,171.25,-44.4,94,3.96,100,53.08
169,Manokwari,ID,134.08,-0.87,84,6.04,100,77.86
170,Shelburne,CA,-80.2,44.08,86,4.25,55,6.13
171,Aklavik,CA,-135.01,68.22,98,3.69,100,-27.58
172,Antofagasta,CL,-70.4,-23.65,57,8.43,42,76.21
173,Lappeenranta,FI,28.19,61.06,99,9.22,100,32.81
174,Cocal,BR,-49.35,-28.62,60,7.2,31,82.33
175,College,US,-147.8,64.86,75,0.0,20,-5.78
176,Tura,IN,90.22,25.52,59,3.2,0,58.95
177,Kumul,CN,93.45,42.8,46,4.43,21,28.09
178,Natal,BR,-35.21,-5.79,62,18.41,75,88.45
179,Provideniya,RU,-173.3,64.38,93,10.38,13,-12.69
180,Plettenberg Bay,ZA,23.37,-34.05,70,22.53,0,73.26
181,Puerto del Rosario,ES,-13.86,28.5,64,14.97,40,69.55
182,Manakara,MG,48.02,-22.13,83,5.82,39,78.93
183,Kaitangata,NZ,169.85,-46.28,86,4.12,100,50.07
184,Iqaluit,CA,-68.51,63.75,70,4.61,100,-13.27
185,Takoradze,GH,-1.76,4.88,69,8.59,25,84.27
186,Sambava,MG,50.17,-14.27,81,9.13,93,81.23
187,Half Moon Bay,US,-122.43,37.46,92,5.75,100,52.92
188,Laas,IT,10.7,46.62,87,4.07,83,41.02
189,Airai,TL,125.41,-8.93,93,2.82,91,59.52
190,Maningrida,AU,134.27,-12.07,83,9.08,31,77.54
191,Torbay,CA,-52.73,47.67,93,23.0,100,27.75
192,Wuwei,CN,102.64,37.93,59,3.22,100,27.97
193,Bereda,ES,-7.54,43.27,85,6.38,46,51.91
194,Cidreira,BR,-50.21,-30.18,43,10.8,0,78.03
195,Middelburg,ZA,29.46,-25.78,28,15.28,93,81.97
196,Lincoln,US,-96.67,40.8,67,10.36,0,35.15
197,Alofi,NU,-169.92,-19.06,94,1.14,100,71.49
198,Garoowe,SO,48.48,8.41,24,15.03,18,83.17
199,Arraial do Cabo,BR,-42.03,-22.97,70,9.22,20,85.86
200,Jumla,NP,82.18,29.27,83,6.29,8,32.02
201,Darnah,LY,22.64,32.77,70,8.25,14,57.63
202,San Quintín,MX,-115.95,30.48,56,3.58,0,60.3
203,Kysyl-Syr,RU,122.76,63.9,100,2.89,84,-28.98
204,Vao,NC,167.48,-22.67,84,18.92,87,79.07
205,Norman Wells,CA,-126.83,65.28,95,11.72,100,-7.37
206,Okakarara,NA,17.43,-20.58,84,8.57,99,68.09
207,Lorengau,PG,147.27,-2.02,82,4.88,28,80.76
208,Verkhoyansk,RU,133.38,67.54,99,0.98,62,-31.47
209,Yulara,AU,130.99,-25.24,18,8.84,2,83.1
210,Mahébourg,MU,57.7,-20.41,83,11.5,75,82.69
211,Puertollano,ES,-4.11,38.69,40,14.58,6,54.09
212,Port Lincoln,AU,135.87,-34.73,81,14.85,96,64.58
213,Berlevåg,NO,29.09,70.86,93,9.22,75,22.95
214,Flin Flon,CA,-101.86,54.77,99,3.15,49,-22.32
215,Mangai,CD,19.53,-4.05,53,2.3,55,85.78
216,Thompson,CA,-97.86,55.74,96,4.79,6,-27.78
217,Merta,IN,74.03,26.65,23,2.57,0,66.24
218,Pavino,RU,46.14,59.11,96,5.91,99,23.0
219,Nanchang,CN,115.88,28.68,80,4.92,1,47.14
220,Fukuechō,JP,128.84,32.69,60,18.1,87,52.09
221,Tārānagar,IN,75.04,28.67,24,7.43,0,69.87
222,Varhaug,NO,5.65,58.61,93,10.76,100,41.9
223,Muros,ES,-9.06,42.78,69,14.2,3,57.24
224,Podosinovets,RU,47.07,60.28,95,7.56,97,22.75
225,Praia da Vitória,PT,-27.07,38.73,71,1.36,11,63.75
226,Nyimba,ZM,30.81,-14.56,93,2.77,99,73.18
227,Mingora,PK,72.36,34.78,54,3.85,94,51.53
228,Westport,US,-73.36,41.14,46,17.27,0,22.41
229,Mumbwa,ZM,27.06,-14.98,86,3.78,71,73.74
230,Moscow,RU,37.62,55.75,88,9.35,100,32.63
231,Celendín,PE,-78.15,-6.87,81,2.57,100,64.92
232,Hājīpur,IN,85.22,25.68,63,0.0,0,60.78
233,Pochutla,MX,-96.47,15.74,35,1.7,7,81.45
234,Santa Cruz de la Sierra,BO,-63.17,-17.8,58,6.91,40,83.66
235,Cortez,US,-108.59,37.35,63,0.0,0,36.41
236,Stratford-upon-Avon,GB,-1.71,52.19,88,14.88,100,48.29
237,Gūdūr,IN,79.85,14.13,74,6.06,8,78.12
238,Tiksi,RU,128.87,71.69,93,5.88,3,-15.75
239,San Policarpo,PH,125.51,12.18,77,5.57,93,78.03
240,Okhotsk,RU,143.3,59.38,76,14.2,22,-9.45
241,Ojinaga,MX,-104.42,29.57,33,0.0,0,41.95
242,Tiquicheo,MX,-100.73,18.88,30,0.51,61,81.41
243,São João da Barra,BR,-41.05,-21.64,77,10.31,0,87.89
244,Cabo San Lucas,MX,-109.91,22.89,45,5.75,0,71.62
245,Wukari,NG,9.78,7.85,7,8.63,15,101.71
246,Talnakh,RU,88.4,69.49,76,7.31,69,-9.8
247,Beidao,CN,105.89,34.57,89,2.21,67,29.55
248,Yumen,CN,97.2,40.28,33,1.48,60,27.84
249,Kabalo,CD,26.92,-6.05,79,4.18,99,78.78
250,Mount Gambier,AU,140.77,-37.83,88,8.79,1,56.16
251,Bekhteyevka,RU,37.21,50.81,91,8.01,14,32.9
252,Itarema,BR,-39.92,-2.92,56,14.97,32,87.96
253,Saldanha,ZA,17.94,-33.01,69,12.24,36,70.92
254,Lüderitz,NA,15.16,-26.65,71,8.03,5,73.11
255,Mīrābād,AF,61.84,30.44,36,21.88,0,54.84
256,Havre-St-Pierre,CA,-63.6,50.23,72,9.44,100,-1.03
257,Caicó,BR,-37.1,-6.46,30,8.12,14,95.05
258,Aswān,EG,32.91,24.09,13,13.29,1,76.82
259,Maryville,US,-83.97,35.76,55,13.8,20,39.16
260,Punto Fijo,VE,-70.2,11.7,61,22.24,77,81.12
261,Montes Claros,BR,-43.86,-16.73,68,4.5,26,80.37
262,Bethel,US,-73.41,41.37,49,16.11,0,20.89
263,Kertosono,ID,112.1,-7.58,92,6.17,100,74.89
264,Hamilton,US,-84.53,39.18,73,3.44,100,20.41
265,Churapcha,RU,132.43,62.0,100,2.24,41,-38.0
266,Balabac,PH,117.06,7.99,80,11.43,100,80.78
267,Raudeberg,NO,5.14,61.99,79,18.01,69,41.67
268,Lubbock,US,-101.83,33.6,38,6.91,0,37.65
269,Harper,LR,-7.72,4.38,77,5.28,84,81.34
270,Batagay,RU,134.63,67.63,98,3.24,72,-31.59
271,Dongsheng,CN,109.98,39.82,45,8.23,58,18.84
272,Vila Franca do Campo,PT,-25.43,37.72,54,0.74,2,65.19
273,Ashcroft,CA,-121.29,50.72,98,1.28,100,35.47
274,Castelnaudary,FR,1.95,43.32,78,4.0,82,52.97
275,Barrow,US,-156.79,71.29,68,9.22,20,-29.18
276,Lubumbashi,CD,27.48,-11.66,91,4.29,99,71.67
277,Dennis,US,-70.19,41.74,86,12.66,100,24.93
278,Calama,CL,-68.93,-22.47,21,10.36,0,68.49
279,Oyotún,PE,-79.3,-6.85,61,6.46,82,74.79
280,Kalmunai,LK,81.82,7.42,69,9.98,96,77.95
281,Owando,CG,15.9,-0.48,61,7.2,98,81.68
282,Launceston,AU,147.17,-41.45,82,4.61,100,62.24
283,Yangi Marg`ilon,UZ,71.72,40.43,59,7.63,100,40.42
284,Killybegs,IE,-8.45,54.63,62,15.75,32,44.46
285,Galle,LK,80.22,6.04,80,4.92,99,78.94
286,Balkanabat,TM,54.37,39.51,42,7.49,53,43.2
287,Māngrol,IN,70.12,21.12,68,12.62,0,70.09
288,Tahoua,NE,5.27,14.89,7,5.39,15,94.21
289,Touros,BR,-35.46,-5.2,57,12.88,42,88.7
290,Vardø,NO,31.11,70.37,93,16.11,75,17.58
291,Salinópolis,BR,-47.36,-0.61,84,11.45,59,80.94
292,Maracaibo,VE,-71.64,10.63,46,6.8,32,85.41
293,Aracruz,BR,-40.27,-19.82,55,6.49,15,88.81
294,Grand Island,US,-98.34,40.92,65,6.91,0,34.09
295,Turukhansk,RU,87.98,65.82,82,9.48,2,-8.68
296,North Platte,US,-100.77,41.12,74,3.44,0,26.49
297,Kungurtug,RU,97.52,50.6,98,1.5,100,-9.02
298,Bilma,NE,12.92,18.69,6,4.45,12,85.42
299,Semīrom,IR,51.57,31.42,61,1.68,0,30.42
300,Great Yarmouth,GB,1.73,52.61,79,22.79,25,48.45
301,Nanortalik,GL,-45.24,60.14,65,48.07,100,15.06
302,Maragogi,BR,-35.22,-9.01,63,11.9,22,85.95
303,Ballina,AU,153.57,-28.87,99,8.14,100,68.18
304,Port Blair,IN,92.75,11.67,78,5.75,20,78.84
305,Lata,PT,-8.33,40.16,55,11.05,62,57.34
306,Gambēla,ET,34.58,8.25,20,7.43,68,99.32
307,Arlit,NE,7.39,18.74,5,1.74,0,89.35
308,Havøysund,NO,24.66,71.0,65,35.46,100,32.88
309,Batagay-Alyta,RU,130.41,67.8,74,5.46,7,-17.43
310,Kharan,PK,65.42,28.58,32,10.83,22,62.94
311,Coquimbo,CL,-71.34,-29.95,64,11.5,0,69.53
312,Constantine,DZ,6.61,36.37,29,9.22,40,63.81
313,Camacupa,AO,17.48,-12.02,67,7.43,100,71.6
314,San Patricio,US,-97.52,28.02,44,6.62,100,53.89
315,Taoudenni,ML,-3.98,22.68,12,15.52,81,75.49
316,Gorontalo,ID,123.06,0.54,91,3.24,74,74.43
317,Tuatapere,NZ,167.68,-46.13,92,2.44,100,50.83
318,Dunedin,NZ,170.5,-45.87,87,1.01,100,56.8
319,Nantucket,US,-70.1,41.28,83,20.71,100,26.71
320,Araouane,ML,-3.53,18.9,11,15.05,53,76.87
321,Saint Anthony,US,-93.22,45.02,80,6.91,0,9.79
322,Geraldton,AU,114.6,-28.77,88,8.05,0,75.61
323,Jinxiang,CN,120.61,27.43,74,11.95,59,50.68
324,Itanhaém,BR,-46.79,-24.18,65,7.99,4,94.24
325,Kaniama,CD,24.18,-7.57,86,1.54,100,71.83
326,Fairbanks,US,-147.72,64.84,73,0.0,20,-5.76
327,May Pen,JM,-77.25,17.96,42,7.94,0,83.41
328,Te Anau,NZ,167.72,-45.42,85,0.51,100,50.88
329,Atambua,ID,124.89,-9.11,89,3.44,91,73.45
330,Mareeba,AU,145.43,-17.0,90,2.24,64,72.45
331,Melilla,ES,-2.94,35.29,59,14.97,20,64.78
332,Taltal,CL,-70.48,-25.4,69,5.77,93,71.33
333,Mayo,US,-76.51,38.89,61,13.0,100,29.1
334,Kawalu,ID,108.21,-7.38,96,1.36,100,73.11
335,Lavrentiya,RU,-171.0,65.58,93,6.4,15,-20.69
336,Samarai,PG,150.67,-10.62,73,7.72,100,82.29
337,Tokur,RU,132.9,53.13,100,3.11,100,-10.62
338,Goderich,CA,-81.72,43.75,90,7.9,99,8.91
339,Moose Factory,CA,-80.61,51.26,76,9.22,100,-16.62
340,Narrabri,AU,149.78,-30.32,62,3.89,49,69.53
341,Chumikan,RU,135.31,54.72,94,2.84,37,-14.03
342,Richards Bay,ZA,32.04,-28.78,73,13.47,97,78.12
343,Pangnirtung,CA,-65.71,66.15,93,3.96,90,-32.3
344,Malatya Province,TR,38.0,38.5,46,5.75,0,42.85
345,Dillon,US,-79.37,34.42,51,5.68,4,46.26
346,Östersund,SE,14.64,63.18,68,5.75,0,26.62
347,Jiayuguan City,CN,98.3,39.82,49,5.48,19,25.9
348,High Level,CA,-117.14,58.52,100,3.94,100,-6.7
349,Agadir,MA,-9.6,30.42,46,13.09,34,72.05
350,Nuuk,GL,-51.72,64.18,66,8.05,75,5.61
351,Dumas,US,-101.97,35.87,60,9.22,0,44.11
352,El Salvador,SV,-88.92,13.83,49,7.87,8,79.2
353,Dondo,MZ,34.74,-19.61,64,10.85,25,85.51
354,Sobolevo,RU,31.9,54.43,90,12.19,74,28.6
355,Taiyuan,CN,112.56,37.87,46,4.47,0,24.66
356,Krasnosel'kup,RU,82.47,65.7,91,12.88,18,-5.64
357,Copiapó,CL,-70.33,-27.37,39,5.66,0,65.89
358,Trairi,BR,-39.27,-3.28,57,12.62,36,87.98
359,Manaure,CO,-72.44,11.78,56,16.75,32,84.0
360,Polyarny,RU,33.45,69.2,86,24.9,55,24.48
361,Ostrovnoy,RU,39.51,68.05,81,14.9,100,26.91
362,Lafia,NG,8.52,8.48,7,5.08,1,102.31
363,Flinders,AU,150.86,-34.58,84,4.0,26,70.21
364,Morondava,MG,44.28,-20.28,75,10.36,79,85.01
365,Narón,ES,-8.15,43.52,80,12.35,22,56.59
366,Misratah,LY,15.09,32.38,47,11.88,8,63.95
367,Biscarrosse,FR,-1.17,44.39,93,12.66,75,53.35
368,Ambanja,MG,48.45,-13.68,88,0.85,54,78.15
369,Ossora,RU,163.07,59.24,88,6.29,100,-8.14
370,The Valley,AI,-63.06,18.22,72,15.01,11,75.81
371,Mezen',RU,44.24,65.85,95,12.86,100,23.18
372,Talcahuano,CL,-73.12,-36.72,63,5.75,20,65.88
373,Necochea,AR,-58.74,-38.55,30,5.08,1,88.03
374,Grand Forks,US,-97.43,47.94,84,6.91,20,-8.21
375,Goshogawara,JP,140.44,40.8,90,3.62,97,25.93
376,Palembang,ID,104.75,-2.92,78,6.91,40,82.49
377,Pervomayskoye,RU,46.71,43.92,68,10.65,100,38.43
378,Chicama,PE,-79.15,-7.84,58,6.49,85,66.74
379,Huarmey,PE,-78.15,-10.07,72,8.63,96,75.06
380,Sechura,PE,-80.82,-5.56,58,7.47,89,78.55
381,Vestmannaeyjar,IS,-20.27,63.44,81,46.04,100,40.19
382,Vostok,RU,135.88,46.49,96,3.85,100,6.03
383,Dinguiraye,GN,-10.72,11.3,9,4.81,0,93.9
384,Kabanjahe,ID,98.49,3.1,96,1.12,90,66.96
385,Hedaru,TZ,37.9,-4.5,83,6.46,100,73.58
386,Kavieng,PG,150.8,-2.57,80,9.62,89,81.57
387,Ishigaki,JP,124.16,24.34,67,22.48,92,65.91
388,Howard Springs,AU,131.05,-12.5,96,2.13,100,72.99
389,Quang Ngai,VN,108.8,15.12,92,3.91,100,70.9
390,Baijiantan,CN,85.18,45.63,91,3.62,100,13.89
391,Yar-Sale,RU,70.83,66.83,100,6.04,84,-20.29
392,Benguela,AO,13.41,-12.58,59,8.25,67,83.48
393,Leh,IN,77.58,34.17,88,0.98,100,9.45
394,Peleduy,RU,112.74,59.63,100,0.09,98,-18.63
395,Kutum,SD,24.67,14.2,9,13.62,55,81.36
396,Makkah al Mukarramah,SA,39.83,21.43,24,13.91,18,82.26
397,Carutapera,BR,-46.02,-1.2,90,9.33,93,79.52
398,Luanda,AO,13.23,-8.84,51,9.22,40,86.0
399,Gijang,KR,129.21,35.24,46,14.54,3,44.28
400,Ust'-Barguzin,RU,108.98,53.45,94,4.34,10,-17.21
401,Mount Vernon,US,-73.84,40.91,50,19.57,20,22.28
402,Saint George,US,-113.58,37.1,34,3.44,0,55.54
403,Ridgecrest,US,-117.67,35.62,26,3.58,20,53.51
404,Mayumba,GA,10.66,-3.43,74,6.89,100,81.03
405,Krasnyy Kholm,RU,37.12,58.06,90,11.16,100,28.56
406,Kruisfontein,ZA,24.73,-34.0,66,19.6,97,69.62
407,Udachny,RU,112.4,66.42,77,2.86,43,-19.32
408,Marsh Harbour,BS,-77.06,26.54,58,21.65,63,70.09
409,Sabinas,MX,-101.12,27.85,39,5.59,0,51.76
410,Sterling,US,-77.43,39.01,58,16.11,75,27.95
411,Boa Vista,BR,-60.67,2.82,43,13.8,40,89.58
412,Hambantota,LK,81.12,6.12,70,18.86,95,78.84
413,Wamba,NG,8.6,8.93,7,7.11,3,101.25
414,Nagato,JP,131.2,34.38,74,8.61,5,45.25
415,Harsīn,IR,47.59,34.27,50,1.88,0,52.61
416,Tocopilla,CL,-70.2,-22.09,70,8.34,29,73.2
417,Ouango,CF,22.56,4.31,11,4.21,85,101.43
418,Malindi,KE,40.12,-3.22,75,15.01,26,80.87
419,Aksay,RU,39.87,47.26,45,8.01,0,41.25
420,Micheweni,TZ,39.83,-4.97,72,11.12,81,82.09
421,Fairview,US,-74.0,40.81,49,19.57,0,21.88
422,Aquiraz,BR,-38.39,-3.9,64,11.45,22,87.89
423,Tabanan,ID,115.13,-8.54,89,3.09,29,77.4
424,Fuerte Olimpo,PY,-57.87,-21.04,25,3.06,3,102.49
425,Ketchikan,US,-131.65,55.34,93,11.5,0,39.18
426,Kamina,CD,24.99,-8.74,77,5.32,100,72.19
427,Verkhnyaya Inta,RU,60.31,65.98,95,6.04,14,-4.2
428,Ulaanbaatar,MN,106.88,47.91,76,4.47,0,-21.87
429,Bayir,TR,28.22,37.27,78,6.33,2,50.52
430,Bichena,ET,38.2,10.45,17,5.79,8,73.42
431,Slave Lake,CA,-114.77,55.28,93,7.56,100,19.04
432,Husavik,IS,-17.34,66.04,70,16.49,74,19.45
433,Fenoarivo,MG,47.44,-18.93,69,9.22,40,75.27
434,Kushiro,JP,144.37,42.98,84,9.84,5,20.23
435,Manono,CD,27.42,-7.3,77,4.74,88,79.74
436,Sitka,US,-135.33,57.05,65,11.5,75,40.89
437,Kozova,UA,25.15,49.44,57,8.72,2,34.3
438,Camacha,PT,-16.33,33.08,72,10.36,75,63.54
439,Naryan-Mar,RU,53.09,67.67,91,15.43,100,7.88
440,Bilibino,RU,166.44,68.05,100,2.59,29,-30.71
441,Imuris,MX,-110.87,30.78,18,5.79,0,57.87
442,Santa Maria,BR,-53.81,-29.68,24,4.34,0,80.55
443,Umluj,SA,37.27,25.02,59,17.45,0,71.58
444,Herne Bay,GB,1.13,51.37,71,8.99,10,50.27
445,Byron Bay,AU,153.62,-28.65,77,7.34,100,68.11
446,Atikokan,CA,-91.62,48.76,97,3.56,99,-5.89
447,Lavaca,US,-96.63,28.61,74,0.0,0,51.98
448,Almeirim,BR,-52.58,-1.52,57,5.93,58,87.26
449,Smithers,CA,-127.17,54.78,100,5.75,100,32.32
450,Peddāpuram,IN,82.13,17.08,68,6.08,16,77.09
451,Port Hedland,AU,118.57,-20.32,66,10.36,20,87.85
452,Amposta,ES,0.58,40.71,34,20.07,2,61.43
453,Yei,SS,30.68,4.09,17,5.23,83,93.85
454,Nioro,GM,-15.75,13.35,7,9.37,16,97.02
455,Vila,PT,-8.16,42.03,74,7.52,40,46.33
456,Tasiilaq,GL,-37.64,65.61,59,44.4,100,23.16
457,Vila Velha,BR,-40.29,-20.33,69,13.0,20,89.55
458,Assiut,EG,31.18,27.18,27,15.41,0,67.8
459,Hervey Bay,AU,152.85,-25.3,78,18.84,62,70.03
460,Straumen,NO,11.3,63.87,84,6.98,71,32.61
461,Hailar,CN,119.7,49.2,99,4.68,96,-14.17
462,San Ramon,US,-121.98,37.78,94,4.61,100,50.61
463,Kolárovo,SK,17.98,47.92,48,14.29,100,50.14
464,Olafsvik,IS,-23.71,64.89,75,30.89,100,36.05
465,Rovnoye,RU,46.05,50.78,90,7.0,49,15.69
466,Guerrero Negro,MX,-114.06,27.98,46,1.61,0,63.12
467,Los Llanos de Aridane,ES,-17.92,28.66,82,10.36,100,62.13
468,Thanh Pho Uong Bi,VN,106.78,21.03,80,0.18,93,60.78
469,Alta Floresta,BR,-56.09,-9.88,87,6.49,88,77.9
470,Baruun-Urt,MN,113.28,46.68,95,2.04,31,-16.29
471,Solenzo,BF,-4.08,12.18,7,7.99,4,95.52
472,Auki,SB,160.7,-8.77,89,4.03,97,76.93
473,Wawa,NG,4.42,9.9,11,5.17,1,96.28
474,Nouadhibou,MR,-17.03,20.93,53,4.41,99,70.84
475,Korla,CN,86.15,41.76,46,2.66,96,32.18
476,Lluta,PE,-72.01,-16.01,41,8.95,22,55.67
477,Roebourne,AU,117.13,-20.78,52,15.08,100,91.31
478,Goya,AR,-59.26,-29.14,16,1.59,2,90.03
479,Farīdkot,IN,74.75,30.67,68,6.82,56,56.7
480,Acaraú,BR,-40.12,-2.89,58,15.5,34,87.57
481,Tiarei,PF,-149.33,-17.53,77,16.44,23,77.02
482,Santa Rosa,PH,121.11,14.31,85,6.38,75,81.1
483,Swan Hill,AU,143.55,-35.34,29,2.46,9,81.73
484,Bukachacha,RU,116.92,52.98,98,3.47,87,-12.62
485,Evensk,RU,159.23,61.95,66,12.19,59,-0.15
486,Labuhan,ID,112.21,-6.88,89,8.75,100,76.32
487,Khatanga,RU,102.5,71.97,100,3.09,35,-27.56
488,Srednekolymsk,RU,153.68,67.45,99,6.04,25,-32.6
489,Beringovskiy,RU,179.32,63.05,97,12.48,97,-22.09
490,Otofuke,JP,143.2,42.99,95,2.64,97,10.69
491,Pundaguitan,PH,126.17,6.37,79,13.18,72,81.14
492,Bani Walid,LY,13.99,31.76,24,11.36,16,67.17
493,Baykit,RU,96.37,61.67,100,3.91,70,-19.73
494,Bosaso,SO,49.18,11.28,69,11.81,10,76.33
495,Pleasanton,US,-121.87,37.66,93,4.61,100,51.93
496,Tigil',RU,158.67,57.8,92,3.76,100,3.25
497,Agnibilékrou,CI,-3.2,7.13,22,2.15,13,101.17
498,Grindavik,IS,-22.43,63.84,75,36.82,75,37.87
499,Bāfq,IR,55.41,31.61,27,4.76,0,53.56
500,Skjervøy,NO,20.97,70.03,57,30.49,100,30.2
501,Wilmington Island,US,-80.97,32.0,41,14.97,0,48.29
502,Causapscal,CA,-67.23,48.35,89,4.34,100,2.23
503,Caravelas,BR,-39.25,-17.71,55,10.49,25,87.89
504,Jieshi,CN,115.83,22.81,82,17.74,3,62.94
505,Ilo,PE,-71.34,-17.64,64,14.97,0,72.46
506,Springdale,US,-94.13,36.19,44,11.5,0,48.31
507,Inhambane,MZ,35.38,-23.86,63,16.08,0,82.18
508,Pilar,BR,-35.96,-9.6,38,13.02,74,87.73
509,Buchanan,LR,-10.05,5.88,68,10.0,86,89.56
510,Joshīmath,IN,79.57,30.57,60,7.31,7,39.22
511,Tavda,RU,65.27,58.04,100,2.93,72,-7.53
512,Quatre Cocos,MU,57.76,-20.21,87,13.33,100,82.51
513,Kiama,AU,150.87,-34.68,84,9.78,30,68.38
514,Kaeo,NZ,173.78,-35.1,90,5.23,0,56.32
515,Seshcha,RU,33.34,53.74,90,11.32,68,28.38
516,Belyy Yar,RU,91.39,53.6,84,0.0,96,-9.51
517,Rrogozhinë,AL,19.67,41.08,60,6.26,13,60.98
518,Terra Santa,BR,-56.49,-2.1,78,5.14,86,82.27
519,La Ronge,CA,-105.28,55.1,99,2.51,34,-24.57
520,Lumeje,AO,20.78,-11.55,76,7.92,100,74.14
521,Galveston,US,-94.97,29.37,80,1.01,0,54.03
522,Yankton,US,-97.4,42.87,73,13.8,0,15.12
523,Pauini,BR,-66.98,-7.71,97,2.64,100,74.71
524,Esmeraldas,BR,-44.31,-19.76,78,6.96,47,83.26
525,Meulaboh,ID,96.13,4.14,91,6.58,99,76.66
526,Banda Aceh,ID,95.32,5.56,85,4.83,68,78.78
527,Manta,EC,-80.73,-0.95,78,3.44,75,80.38
528,Mahabalipuram,IN,80.17,12.63,67,13.49,4,80.06
529,San Javier,ES,-0.84,37.81,32,8.05,20,68.13
530,Acapulco de Juárez,MX,-99.89,16.86,65,2.3,40,78.62
531,Saravan,AM,45.65,39.72,80,6.58,66,30.85
532,Leningradskiy,RU,178.42,69.38,90,5.95,83,-19.01
533,Podgornoye,RU,39.15,51.73,64,8.95,0,32.22
534,Tiassalé,CI,-4.83,5.9,37,2.06,46,95.25
535,Malibu,US,-118.81,34.01,39,3.56,10,72.27
536,Uren',RU,45.79,57.46,96,6.42,97,23.61
537,Sisimiut,GL,-53.67,66.94,92,9.42,100,-1.05
538,Baní,DO,-70.33,18.28,51,5.55,0,82.85
539,Pathein,MM,94.73,16.78,64,8.12,56,69.33
540,Omboué,GA,9.26,-1.57,69,6.82,81,82.67
541,Kismayo,SO,42.55,-0.36,74,16.51,6,79.61
542,Riyadh,SA,46.72,24.69,16,4.59,0,66.34
543,Bariloche,AR,-71.31,-41.15,35,20.71,0,71.35
544,Khāsh,IR,61.22,28.22,40,14.41,27,49.33
545,Abomsa,ET,39.98,9.98,29,12.46,3,80.91
546,Hohhot,CN,111.65,40.81,80,3.04,68,9.68
547,Jaora,IN,75.13,23.63,34,3.94,64,70.45
548,Yichun,CN,128.9,47.7,100,0.36,99,-6.57
549,Zhigansk,RU,123.37,66.77,100,2.17,21,-36.63
550,Kuchinarai,TH,104.05,16.54,71,7.43,8,67.96
551,Rafsanjān,IR,55.99,30.41,28,5.59,0,49.8
552,Yate,GB,-2.42,51.54,81,1.99,100,48.76
553,Mogadishu,SO,45.34,2.04,76,19.82,100,78.53
554,Khairābād,IN,80.75,27.53,56,3.27,0,59.76
555,Nizip,TR,37.79,37.01,58,7.63,86,53.73
556,Morant Bay,JM,-76.41,17.88,60,6.29,0,83.82
557,Songea,TZ,35.65,-10.68,92,5.41,100,66.49
558,Mayya,RU,130.28,61.73,100,1.32,59,-36.69
559,Tegul'det,RU,88.17,57.31,95,7.2,100,12.18
560,La Asuncion,VE,-63.86,11.03,68,12.84,9,79.7
561,Hals,DK,10.31,57.0,85,24.45,100,46.36
562,Guarapari,BR,-40.5,-20.67,67,15.37,8,89.49
563,Arrondissement de Saint-Denis,FR,2.33,48.92,68,13.8,75,54.37
564,Vite,IN,74.55,17.28,26,3.89,16,78.15
565,Torres,BR,-49.73,-29.34,55,9.62,6,81.82
566,Pangai,TO,-174.35,-19.8,75,19.04,95,80.82
567,Tromsø,NO,18.96,69.65,74,10.36,75,30.22
568,Suntar,RU,117.63,62.14,100,0.49,100,-13.41
569,Cururupu,BR,-44.87,-1.83,90,5.95,100,78.66
570,Biak,ID,122.88,-0.91,86,1.86,76,76.53
